City_ID,City,Lat,Lng,Max Temp,Humidity,Cloudiness,Wind Speed,Country,Date
0,punta arenas,-53.15,-70.9167,3.0600000000000023,87,20,2.06,CL,1723675105
1,papatowai,-46.5619,169.4708,13.240000000000009,60,100,6.19,NZ,1723675105
2,port alfred,-33.5906,26.891,11.770000000000039,62,41,4.02,ZA,1723675105
3,badr hunayn,23.7829,38.7905,32.75,59,28,2.4,SA,1723675105
4,sidney,-33.8679,151.2073,15.730000000000018,94,75,5.66,AU,1723675089
5,greenville,35.6127,-77.3663,27.30000000000001,64,75,0.0,US,1723675105
6,wailua homesteads,22.0669,-159.378,28.439999999999998,66,0,5.66,US,1723675105
7,kirakira,-10.4544,161.9205,27.460000000000036,83,81,5.6,SB,1723675106
8,albany,42.6001,-73.9662,22.55000000000001,93,81,1.65,US,1723675106
9,port saint john's,-31.6229,29.5448,12.990000000000009,57,0,6.97,ZA,1723675106
10,anadyr,64.75,177.4833,9.28000000000003,57,0,4.0,RU,1723675106
11,badger,64.8,-147.5333,16.110000000000014,60,0,4.12,US,1723675106
12,longyearbyen,78.2186,15.6401,12.910000000000025,71,75,5.66,SJ,1723675106
13,hobyo,5.3505,48.5268,24.100000000000023,85,26,9.67,SO,1723675107
14,hassi messaoud,31.6804,6.0729,38.920000000000016,14,19,1.54,DZ,1723675107
15,ushuaia,-54.8,-68.3,3.8100000000000023,81,75,6.69,AR,1723674914
16,rechka-vydrino,51.485,104.8461,14.150000000000034,89,100,3.88,RU,1723675107
17,bethel,41.3712,-73.414,26.220000000000027,68,0,1.54,US,1723675107
18,lihue,21.9789,-159.3672,28.77000000000004,63,0,5.66,US,1723675107
19,luis gil perez,17.8667,-93.05,27.730000000000018,88,93,4.11,MX,1723675108
20,waitangi,-43.9535,-176.5597,11.57000000000005,87,43,4.47,NZ,1723675108
21,tazovsky,67.4667,78.7,12.480000000000018,78,100,8.03,RU,1723675108
22,talnakh,69.4865,88.3972,13.07000000000005,56,4,2.46,RU,1723675108
23,namibe,-15.1961,12.1522,18.730000000000018,83,90,2.03,AO,1723675108
24,bilibino,68.0546,166.4372,1.6200000000000045,98,100,3.29,RU,1723675108
25,adamstown,-25.066,-130.1015,20.430000000000007,80,74,4.87,PN,1723675109
26,port-aux-francais,-49.35,70.2167,4.310000000000002,97,98,12.56,TF,1723675109
27,ilulissat,69.2167,-51.1,7.010000000000048,81,75,3.6,GL,1723675109
28,saldanha,-33.0117,17.9442,6.03000000000003,73,9,3.71,ZA,1723675109
29,arraial do cabo,-22.9661,-42.0278,15.980000000000018,94,20,1.54,BR,1723675109
30,porteirinha,-15.7433,-43.0283,21.939999999999998,55,53,4.05,BR,1723675109
31,san juan de miraflores,-12.1629,-76.9635,18.980000000000018,73,20,4.92,PE,1723675110
32,tiksi,71.6872,128.8694,8.180000000000007,61,46,3.08,RU,1723675110
33,siracusa,37.0881,15.2792,28.77000000000004,54,0,3.4,IT,1723675110
34,la passe,45.5549,-0.8967,19.430000000000007,81,2,4.09,FR,1723675110
35,al jawf,29.5,38.75,30.410000000000025,19,0,2.68,SA,1723675110
36,ta`u,-14.2336,-169.5144,24.410000000000025,73,98,10.32,AS,1723675110
37,puerto natales,-51.7236,-72.4875,4.25,81,75,2.57,CL,1723675111
38,invercargill,-46.4,168.35,12.79000000000002,72,99,5.36,NZ,1723675111
39,ataq,14.5377,46.8319,25.230000000000018,63,7,3.95,YE,1723675111
40,jijel,36.8205,5.7667,24.970000000000027,69,40,1.03,DZ,1723675111
41,rongelap,11.1635,166.8941,28.350000000000023,77,10,7.99,MH,1723675111
42,hermanus,-34.4187,19.2345,6.0,69,76,2.14,ZA,1723675111
43,howrah,22.5892,88.3103,28.0,94,75,0.0,IN,1723675111
44,port hedland,-20.3167,118.5667,17.03000000000003,94,0,3.6,AU,1723675112
45,walvis bay,-22.9575,14.5053,12.270000000000039,76,0,1.13,NA,1723675112
46,thompson,55.7435,-97.8558,25.090000000000032,57,100,3.6,CA,1723675112
47,port mathurin,-19.6833,63.4167,22.930000000000007,71,61,10.3,MU,1723675112
48,coquimbo,-29.9533,-71.3436,12.850000000000023,80,100,4.12,CL,1723675112
49,barclayville,4.6797,-8.2339,23.840000000000032,81,84,4.31,LR,1723675112
50,lebu,-37.6167,-73.65,8.890000000000043,85,100,3.8,CL,1723675113
51,margaret river,-33.95,115.0667,12.720000000000027,63,98,5.99,AU,1723675113
52,iskateley,67.6803,53.1512,9.29000000000002,96,100,8.06,RU,1723675113
53,campbell river,50.0163,-125.2446,23.210000000000036,60,40,4.12,CA,1723675113
54,grytviken,-54.2811,-36.5092,-5.019999999999982,55,57,4.99,GS,1723675113
55,erbil,36.1926,44.0106,30.900000000000034,20,0,2.57,IQ,1723675114
56,tindouf,27.6711,-8.1474,33.25,19,0,5.14,DZ,1723675114
57,calchaqui,-29.8877,-60.287,16.510000000000048,42,1,3.68,AR,1723675114
58,jamestown,42.097,-79.2353,24.730000000000018,64,0,4.12,US,1723675114
59,edinburgh of the seven seas,-37.0676,-12.3116,11.920000000000016,74,40,14.47,SH,1723675114
60,alice springs,-23.7,133.8833,8.75,61,1,2.06,AU,1723675114
61,yellowknife,62.456,-114.3525,15.29000000000002,86,75,8.75,CA,1723675115
62,dowa,-13.654,33.9375,16.55000000000001,48,21,1.33,MW,1723675115
63,batticaloa,7.7102,81.6924,26.870000000000005,83,90,0.2,LK,1723675115
64,saudarkrokur,65.7461,-19.6394,10.410000000000025,81,100,2.23,IS,1723675115
65,zherdevka,51.8486,41.4606,14.480000000000018,72,30,3.71,RU,1723675115
66,maridi,4.9158,29.4742,19.410000000000025,98,100,3.57,SS,1723675116
67,stettler,52.3168,-112.7186,24.860000000000014,37,15,5.48,CA,1723675116
68,college,64.8569,-147.8028,16.160000000000025,55,75,4.12,US,1723675116
69,broken hill,-31.95,141.4333,17.140000000000043,47,2,4.26,AU,1723675116
70,kiunga,-6.1219,141.2906,23.379999999999995,99,100,0.68,PG,1723675116
71,puerto ayora,-0.7393,-90.3518,23.980000000000018,85,71,2.24,EC,1723675116
72,whitehorse,60.7161,-135.0538,9.450000000000045,95,100,2.06,CA,1723675117
73,usogorsk,63.4106,48.6872,10.939999999999998,81,83,4.52,RU,1723675117
74,blackmans bay,-43.0167,147.3167,8.740000000000009,94,100,0.81,AU,1723675117
75,ballina,-28.8667,153.5667,18.77000000000004,93,88,2.66,AU,1723675117
76,alofi,-19.0595,-169.9187,21.939999999999998,60,75,5.66,NU,1723675117
77,al bawiti,28.3492,28.8659,28.450000000000045,38,0,3.47,EG,1723675117
78,tommot,58.9564,126.2925,14.75,68,100,3.07,RU,1723675117
79,port lincoln,-34.7333,135.8667,14.990000000000009,74,69,4.54,AU,1723675118
80,kapuskasing,49.4169,-82.4331,22.05000000000001,78,75,2.57,CA,1723675118
81,manicore,-5.8092,-61.3003,29.28000000000003,46,37,1.43,BR,1723675118
82,nago,26.5881,127.9761,28.470000000000027,80,98,1.5,JP,1723675118
83,mejit,10.2753,170.8646,28.410000000000025,78,80,6.94,MH,1723675118
84,iqaluit,63.7506,-68.5145,13.850000000000023,54,40,9.26,CA,1723675118
85,cooma,-36.2333,149.1333,9.910000000000025,83,11,0.28,AU,1723675119
86,nova sintra,14.8667,-24.7167,25.640000000000043,81,79,6.21,CV,1723675119
87,ribeira grande,38.5167,-28.7,24.32000000000005,88,4,0.89,PT,1723675119
88,nemuro,43.3236,145.575,17.480000000000018,99,100,5.78,JP,1723675119
89,cardigan,52.0847,-4.6591,16.960000000000036,93,90,4.55,GB,1723675119
90,utrik,11.2278,169.8474,27.890000000000043,74,100,5.88,MH,1723675119
91,hadibu,12.65,54.0333,26.189999999999998,82,32,6.51,YE,1723675120
92,yeraliyev,43.2,51.65,24.430000000000007,44,86,4.43,KZ,1723675120
93,san antonio de pale,-1.4014,5.6325,22.950000000000045,82,17,2.24,GQ,1723675120
94,carutapera,-1.195,-46.02,25.620000000000005,74,4,3.97,BR,1723675120
95,sisimiut,66.9395,-53.6735,5.220000000000027,88,100,3.04,GL,1723675120
96,pacific grove,36.6177,-121.9166,25.860000000000014,78,0,4.12,US,1723675120
97,penon blanco,24.7897,-104.0369,29.510000000000048,27,96,5.92,MX,1723675121
98,bredasdorp,-34.5322,20.0403,6.590000000000032,75,67,1.77,ZA,1723675121
99,kapa'a,22.0752,-159.319,29.180000000000007,63,0,5.66,US,1723675121
100,el nido,11.1858,119.3956,26.189999999999998,94,78,1.53,PH,1723675121
101,stanley,54.868,-1.6985,13.010000000000048,69,0,3.09,GB,1723675121
102,tazacorte,28.629,-17.9293,23.54000000000002,73,20,8.23,ES,1723675121
103,macau,22.2006,113.5461,27.890000000000043,94,20,1.03,MO,1723675122
104,geraldton,-28.7667,114.6,15.230000000000018,77,100,3.09,AU,1723675122
105,el calafate,-50.3408,-72.2768,0.410000000000025,79,92,1.07,AR,1723675122
106,west island,-12.1568,96.8225,25.99000000000001,83,40,4.63,CC,1723675122
107,pallattur,10.15,78.8,26.510000000000048,87,53,2.42,IN,1723675122
108,isangel,-19.55,169.2667,25.060000000000002,61,40,5.66,VU,1723675123
109,khandyga,62.6667,135.6,11.270000000000039,44,0,3.8,RU,1723675123
110,christchurch,-43.5333,172.6333,9.970000000000027,82,94,1.78,NZ,1723674945
111,mahibadhoo,3.7833,72.9667,27.83000000000004,76,95,9.57,MV,1723675123
112,richards bay,-28.783,32.0377,18.560000000000002,65,95,4.61,ZA,1723675123
113,mweka,-4.85,21.5667,25.379999999999995,54,97,1.67,CD,1723675123
114,pimentel,-6.8367,-79.9342,19.160000000000025,72,0,8.23,PE,1723675124
115,island harbour,50.724,-1.2758,17.74000000000001,90,84,4.46,GB,1723675124
116,naze,28.3667,129.4833,26.510000000000048,76,93,0.89,JP,1723675124
117,kavalerovo,44.2661,135.0572,23.660000000000025,83,8,0.52,RU,1723675124
118,ixtapa,20.7,-105.2,26.57000000000005,94,100,3.13,MX,1723675124
119,kodiak,57.79,-152.4072,13.730000000000018,72,0,3.6,US,1723675125
120,atafu village,-8.5421,-172.5159,28.220000000000027,74,11,4.72,TK,1723675125
121,balykshi,47.0667,51.8667,17.0,51,0,4.0,KZ,1723675125
122,talcahuano,-36.7167,-73.1167,12.82000000000005,82,75,4.12,CL,1723675125
123,kilimatinde,-5.85,34.95,20.140000000000043,54,3,1.44,TZ,1723675125
124,hawaiian paradise park,19.5933,-154.9731,28.74000000000001,69,40,5.66,US,1723675126
125,auki,-8.7676,160.7034,28.870000000000005,69,39,1.38,SB,1723675126
126,puerto leguizamo,-0.1934,-74.7819,23.610000000000014,88,92,0.28,CO,1723675126
127,turan,16.0678,108.2208,25.99000000000001,100,40,1.54,VN,1723675126
128,la ronge,55.1001,-105.2842,25.140000000000043,50,40,2.57,CA,1723675126
129,el tigre,8.8875,-64.2454,26.700000000000045,70,99,1.82,VE,1723675126
130,chonchi,-42.6128,-73.8092,8.950000000000045,90,84,1.6,CL,1723675127
131,mandvi,22.8333,69.3667,27.470000000000027,82,100,6.44,IN,1723675127
132,tamanrasset,22.785,5.5228,25.950000000000045,53,40,1.54,DZ,1723675127
133,singkil,-7.9855,111.4161,20.360000000000014,93,90,2.9,ID,1723675127
134,port blair,11.6667,92.75,26.02000000000004,94,75,1.03,IN,1723675127
135,bubaque,11.2833,-15.8333,26.189999999999998,83,100,5.58,GW,1723675127
136,ancud,-41.8697,-73.8203,7.840000000000032,89,29,4.05,CL,1723675128
137,silver city,32.7701,-108.2803,32.43000000000001,23,0,5.81,US,1723674963
138,derzhavinsk,51.1,66.3167,16.170000000000016,59,33,3.47,KZ,1723675128
139,arno,60.1167,18.6333,17.660000000000025,83,97,4.3,SE,1723675128
140,tura,25.5198,90.2201,24.55000000000001,98,100,2.05,IN,1723675128
141,thunder bay,48.4001,-89.3168,27.99000000000001,44,75,3.6,CA,1723675128
142,flying fish cove,-10.4217,105.6791,24.82000000000005,83,100,6.17,CX,1723675129
143,zeya,53.75,127.2667,22.860000000000014,82,68,1.17,RU,1723675129
144,kamaishi,39.2667,141.8833,26.80000000000001,83,17,1.24,JP,1723675129
145,puerto baquerizo moreno,-0.9,-89.6,21.55000000000001,73,75,5.66,EC,1723675129
146,dalnegorsk,44.5604,135.5701,22.77000000000004,85,4,0.38,RU,1723675131
147,saint-pierre,-21.3393,55.4781,20.82000000000005,60,100,2.57,RE,1723675131
148,mount pearl,47.5166,-52.7813,13.410000000000025,80,40,2.57,CA,1723675131
149,jiazi,22.8779,116.067,28.060000000000002,85,100,3.3,CN,1723675131
150,gorontalo,0.5412,123.0595,25.5,85,48,1.47,ID,1723675131
151,crane,31.3974,-102.3501,37.629999999999995,23,13,8.42,US,1723675131
152,pisco,-13.7,-76.2167,17.03000000000003,77,20,6.69,PE,1723675132
153,avarua,-21.2078,-159.775,22.03000000000003,73,40,4.63,CK,1723675132
154,east london,-33.0153,27.9116,13.160000000000025,55,5,10.14,ZA,1723675132
155,darwin,-12.4611,130.8418,21.99000000000001,88,0,1.54,AU,1723675132
156,ambon,-3.6954,128.1814,25.08000000000004,88,40,0.51,ID,1723675132
157,san patricio,28.017,-97.5169,34.53000000000003,53,99,6.57,US,1723675132
158,petropavlovsk-kamchatsky,53.0452,158.6483,12.330000000000041,100,100,1.0,RU,1723675133
159,uturoa,-16.7333,-151.4333,25.879999999999995,78,27,3.36,PF,1723675133
160,port douglas,-16.4833,145.4667,23.430000000000007,51,5,1.27,AU,1723675133
161,tual,-5.6667,132.75,25.189999999999998,79,58,7.99,ID,1723675133
162,turkmenbasy,40.0222,52.9552,25.430000000000007,41,0,3.09,TM,1723675133
163,karamay,45.6004,84.8661,26.960000000000036,28,4,3.58,CN,1723675133
164,udachny,66.4167,112.4,9.07000000000005,53,85,3.8,RU,1723675134
165,pergamino,-33.89,-60.5736,13.670000000000016,53,100,3.09,AR,1723675134
166,vernon,50.2581,-119.2691,33.29000000000002,24,1,0.51,CA,1723675134
167,axim,4.8699,-2.2405,24.140000000000043,81,80,3.55,GH,1723674846
168,port elizabeth,-33.918,25.5701,12.400000000000034,68,0,7.72,ZA,1723675134
169,malynivka,49.8167,36.7333,17.140000000000043,53,38,1.99,UA,1723675135
170,sitka,57.0531,-135.33,15.939999999999998,72,100,2.06,US,1723675135
171,golfito,8.639,-83.166,23.55000000000001,92,100,1.11,CR,1723675135
172,bereket,39.2446,55.5154,29.5,61,0,3.71,TM,1723675135
173,olonkinbyen,70.9221,-8.7187,5.490000000000009,95,64,8.1,SJ,1723675136
174,lodwar,3.1191,35.5973,30.260000000000048,39,43,3.69,KE,1723675136
175,enewetak,11.3474,162.3373,28.82000000000005,75,74,6.75,MH,1723675136
176,vadso,70.0744,29.7487,16.49000000000001,82,17,3.09,NO,1723675136
177,ermelo,-26.5333,29.9833,5.730000000000018,34,0,1.7,ZA,1723675136
178,wajir,1.7471,40.0573,24.650000000000034,59,46,7.19,KE,1723675136
179,miracema do tocantins,-9.5618,-48.3967,31.30000000000001,29,94,0.9,BR,1723675137
180,muroto-misakicho,33.2833,134.15,28.75,71,0,3.55,JP,1723675137
181,vrnjacka banja,43.6167,20.9,22.57000000000005,50,66,0.98,RS,1723675137
182,fale old settlement,-9.3852,-171.2468,28.200000000000045,72,8,4.07,TK,1723675137
183,fort bragg,35.139,-79.006,29.910000000000025,48,0,2.06,US,1723675137
184,ewo,-0.8725,14.8206,25.410000000000025,65,86,2.35,CG,1723675137
185,kipushi,-11.7667,27.2333,18.27000000000004,35,0,2.7,CD,1723675138
186,hafar al-batin,28.4328,45.9708,36.32000000000005,11,0,4.12,SA,1723675138
187,north battleford,52.7834,-108.2847,29.05000000000001,32,40,5.14,CA,1723675138
188,kourou,5.1552,-52.6478,27.03000000000003,84,5,2.71,GF,1723675138
189,newcastle,-32.9272,151.7765,16.510000000000048,98,100,3.6,AU,1723675138
190,ofunato,39.0717,141.7167,27.379999999999995,81,14,0.2,JP,1723675138
191,carloforte,39.145,8.3058,25.390000000000043,89,87,5.37,IT,1723675139
192,kuqa,41.7278,82.9364,26.890000000000043,32,99,0.15,CN,1723675139
193,hamilton,39.1834,-84.5333,31.110000000000014,41,0,3.6,US,1723674893
194,yanykurgan,43.915,67.2481,27.100000000000023,19,0,4.6,KZ,1723675139
195,tucuma,-0.1833,-50.05,26.400000000000034,81,0,5.07,BR,1723675139
196,klyuchi,52.2667,79.1667,19.930000000000007,69,70,2.57,RU,1723675139
197,aasiaat,68.7098,-52.8699,2.910000000000025,97,100,1.17,GL,1723675139
198,necochea,-38.5473,-58.7368,11.140000000000043,69,100,4.2,AR,1723675140
199,sinabang,2.4803,96.3801,26.260000000000048,84,96,1.02,ID,1723675140
200,chibougamau,49.9168,-74.3659,25.79000000000002,44,0,3.6,CA,1723675140
201,cotonou,6.3654,2.4183,24.99000000000001,88,40,5.66,BJ,1723675140
202,calipatria,33.1256,-115.5142,43.27000000000004,13,0,3.97,US,1723675140
203,mokhsogollokh,61.4681,128.9203,11.860000000000014,51,99,1.92,RU,1723675140
204,sydney mines,46.2367,-60.2177,18.0,95,75,0.45,CA,1723675141
205,san julian,21.0167,-102.1667,20.350000000000023,72,100,2.12,MX,1723675141
206,dwarka,22.2394,68.9678,27.340000000000032,83,98,5.98,IN,1723675141
207,kerikeri,-35.2268,173.9474,13.82000000000005,67,100,1.87,NZ,1723675141
208,suva,-18.1416,178.4415,22.710000000000036,78,75,4.63,FJ,1723675142
209,orkney,-26.9802,26.6727,7.82000000000005,33,2,2.64,ZA,1723675142
210,okha,53.5739,142.9478,18.79000000000002,69,27,3.31,RU,1723675142
211,vanimo,-2.6741,141.3028,27.010000000000048,85,63,1.51,PG,1723675142
212,kichmengskiy gorodok,59.9816,45.7854,10.930000000000007,67,98,3.81,RU,1723675142
213,hangal,14.7667,75.1333,23.760000000000048,91,100,1.94,IN,1723675143
214,lasem,-6.6922,111.4527,22.640000000000043,78,69,2.92,ID,1723675143
215,puerto quijarro,-17.7833,-57.7667,25.950000000000045,23,1,0.61,BO,1723675143
216,georgetown,5.4112,100.3354,27.960000000000036,94,20,1.54,MY,1723675143
217,zhongxing,33.7039,118.6792,25.58000000000004,90,17,2.22,CN,1723675143
218,coruche,38.9595,-8.5252,20.220000000000027,74,69,3.54,PT,1723675144
219,findlay,41.0442,-83.6499,28.29000000000002,51,20,2.24,US,1723675144
220,egilsstadir,65.2653,-14.3948,11.950000000000045,82,75,5.14,IS,1723675144
221,torbeyevo,54.0797,43.2473,10.670000000000016,92,17,3.27,RU,1723675144
222,pocoes,-14.5297,-40.3653,17.400000000000034,98,72,2.54,BR,1723675144
223,hecun,36.5333,114.1111,25.100000000000023,79,91,0.5,CN,1723675144
224,wanning,18.8003,110.3967,27.200000000000045,87,100,3.37,CN,1723675145
225,fort mcmurray,56.7268,-111.381,21.77000000000004,64,75,5.14,CA,1723675145
226,poninka,50.1849,27.5363,14.610000000000014,69,0,2.79,UA,1723675145
227,hami,42.8,93.45,24.629999999999995,28,0,4.5,CN,1723675145
228,mana,5.6592,-53.7767,26.52000000000004,82,4,3.74,GF,1723675145
229,contai,21.7786,87.7536,27.170000000000016,91,100,1.98,IN,1723675145
230,saipan,15.1355,145.701,30.390000000000043,79,0,2.57,MP,1723675146
231,hovd,48.0056,91.6419,18.010000000000048,43,0,2.13,MN,1723675146
232,lata,40.1629,-8.3327,13.010000000000048,91,30,0.19,PT,1723675146
233,bengkulu,-3.8004,102.2655,23.400000000000034,89,77,1.73,ID,1723675146
234,holualoa,19.6228,-155.9522,28.08000000000004,81,0,4.63,US,1723675146
235,richland,40.7834,-82.5499,26.29000000000002,50,40,3.09,US,1723675146
236,kingscliff,-28.2667,153.5667,20.410000000000025,100,100,3.6,AU,1723675147
237,labytnangi,66.6572,66.4183,12.890000000000043,89,100,8.5,RU,1723675147
238,cabedelo,-6.9811,-34.8339,25.370000000000005,83,0,6.63,BR,1723675147
239,puerto deseado,-47.7503,-65.8938,6.8700000000000045,81,100,2.39,AR,1723675147
240,zhangjiakou,40.81,114.8794,20.150000000000034,83,2,0.17,CN,1723675008
241,pangody,65.85,74.4859,13.550000000000011,96,83,5.05,RU,1723675147
242,bijrauni,24.9167,77.6333,25.060000000000002,93,100,3.5,IN,1723675148
243,yaren,-0.5472,166.916,28.82000000000005,76,29,5.18,NR,1723675148
244,cudillero,43.5622,-6.1459,17.590000000000032,82,20,0.0,ES,1723675148
245,la sarre,48.8002,-79.1996,24.100000000000023,62,73,2.37,CA,1723675148
246,westport,41.1415,-73.3579,27.900000000000034,66,0,4.12,US,1723675148
247,sanctuary point,-35.1114,150.629,15.420000000000016,94,88,2.54,AU,1723675148
248,aswan,24.0934,32.907,33.610000000000014,16,0,0.0,EG,1723675149
249,colonia,50.9333,6.95,19.410000000000025,85,0,0.51,DE,1723675149
250,san juan pueblo,15.5833,-87.2333,30.310000000000002,89,90,1.87,HN,1723675149
251,imbituba,-28.24,-48.6703,16.03000000000003,85,0,4.58,BR,1723675149
252,nantucket,41.2835,-70.0995,24.450000000000045,73,0,2.06,US,1723675149
253,minas de marcona,-15.2119,-75.1103,12.200000000000045,76,10,4.95,PE,1723675150
254,vilyuchinsk,52.9306,158.4028,13.150000000000034,83,53,0.46,RU,1723675150
255,margate,51.3813,1.3862,19.930000000000007,79,5,2.41,GB,1723675150
256,lethem,3.3803,-59.7968,27.960000000000036,60,27,2.31,GY,1723675150
257,lompoc,34.6391,-120.4579,24.360000000000014,78,0,0.89,US,1723674953
258,sao joao da barra,-21.6403,-41.0511,18.05000000000001,72,59,5.66,BR,1723675151
259,yuzhno-kurilsk,44.0306,145.8556,17.82000000000005,97,100,4.83,RU,1723675151
260,mpongwe,-13.5091,28.155,17.430000000000007,42,0,2.19,ZM,1723675151
261,salinopolis,-0.6136,-47.3561,26.49000000000001,79,4,6.1,BR,1723675151
262,cabo san lucas,22.8909,-109.9124,31.77000000000004,83,75,3.09,MX,1723675093
263,karratha,-20.7377,116.8463,20.960000000000036,36,0,4.35,AU,1723675151
264,ar rutbah,33.0381,40.2848,30.760000000000048,24,0,1.66,IQ,1723675151
265,ovria,38.1833,21.7167,27.29000000000002,45,0,2.36,GR,1723675152
266,mineiros,-17.5694,-52.5511,22.08000000000004,24,0,1.59,BR,1723675152
267,coutances,49.05,-1.4333,15.760000000000048,83,68,2.85,FR,1723675152
268,sidi akkacha,36.4647,1.3026,27.160000000000025,84,10,0.91,DZ,1723675152
269,i-n-salah,27.1935,2.4607,35.24000000000001,9,0,5.5,DZ,1723675152
270,howard springs,-12.497,131.047,21.950000000000045,77,7,2.26,AU,1723675152
271,magadan,59.5667,150.8,9.680000000000007,60,96,4.84,RU,1723675153
272,hithadhoo,-0.6,73.0833,28.600000000000023,72,93,8.72,MV,1723675153
273,grahamstown,-33.3042,26.5328,8.310000000000002,64,11,8.3,ZA,1723675153
274,kailua-kona,19.6406,-155.9956,30.150000000000034,79,0,4.63,US,1723674999
275,isafjordur,66.0755,-23.124,6.189999999999998,88,92,1.0,IS,1723675153
276,aurillac,44.9167,2.45,16.49000000000001,95,100,1.54,FR,1723675153
277,malvan,16.0667,73.4667,27.140000000000043,88,100,5.0,IN,1723675154
278,paris,48.8534,2.3488,22.460000000000036,78,0,2.57,FR,1723674921
279,tucurui,-3.7661,-49.6725,26.160000000000025,55,25,0.55,BR,1723675154
280,abepura,-2.6333,140.5833,26.450000000000045,89,40,2.06,ID,1723675154
281,lazaro cardenas,17.9583,-102.2,29.720000000000027,68,84,4.21,MX,1723675154
282,kentau,43.5206,68.5094,26.410000000000025,19,0,5.05,KZ,1723675154
283,karimganj,24.8667,92.35,25.870000000000005,97,100,0.64,IN,1723675154
284,labrador city,52.9463,-66.9114,22.879999999999995,49,75,3.09,CA,1723675155
285,kalemie,-5.9475,29.1947,23.890000000000043,54,14,0.65,CD,1723675155
286,curumani,9.1999,-73.5427,30.03000000000003,69,97,1.13,CO,1723675155
287,warwick,41.7001,-71.4162,26.54000000000002,63,75,2.24,US,1723675155
288,nikolayevsk-on-amure,53.1406,140.73,22.75,64,62,1.42,RU,1723675155
289,codrington,-38.2667,141.9667,12.189999999999998,86,100,4.21,AU,1723675156
290,dudinka,69.4058,86.1778,10.900000000000034,59,6,3.86,RU,1723675156
291,hastings,50.8552,0.5729,19.32000000000005,90,34,3.73,GB,1723675156
292,haiku-pauwela,20.9219,-156.3051,27.360000000000014,69,20,11.32,US,1723675156
293,urangan,-25.3,152.9,19.150000000000034,94,53,3.73,AU,1723675156
294,vorkuta,67.5,64.0,13.640000000000043,76,89,7.36,RU,1723675157
295,rudsar,37.1376,50.288,25.05000000000001,76,0,0.89,IR,1723675157
296,dongcun,36.7767,121.1597,25.960000000000036,87,0,1.38,CN,1723675157
297,great falls,47.5002,-111.3008,27.660000000000025,36,0,4.12,US,1723675157
298,gulfport,30.3674,-89.0928,35.03000000000003,55,0,6.17,US,1723675157
299,yangshuo,24.7808,110.4897,24.120000000000005,98,98,0.94,CN,1723675158
300,kalevala,65.2,31.1667,12.580000000000041,74,33,1.64,RU,1723675158
301,jonesborough,36.2943,-82.4735,30.55000000000001,47,33,1.39,US,1723675158
302,kulhudhuffushi,6.6221,73.07,27.810000000000002,76,99,9.97,MV,1723675158
303,boende,-0.2167,20.8667,22.340000000000032,91,100,1.16,CD,1723675158
304,quellon,-43.1167,-73.6167,7.840000000000032,82,100,3.16,CL,1723675158
305,lospalos,-8.5186,127.0025,20.060000000000002,81,23,2.6,TL,1723675159
306,remire-montjoly,4.9167,-52.2667,27.02000000000004,83,0,1.03,GF,1723675159
307,afif,23.9065,42.9172,30.24000000000001,17,4,3.59,SA,1723675159
308,nanga eboko,4.6833,12.3667,19.680000000000007,97,99,1.36,CM,1723675159
309,bandar lampung,-5.4254,105.258,21.610000000000014,94,60,0.43,ID,1723675159
310,oyama,36.3,139.8,30.33000000000004,73,0,1.51,JP,1723675159
311,tolanaro,-25.0319,46.9987,22.04000000000002,88,0,4.12,MG,1723675160
312,sampit,-2.5333,112.95,23.430000000000007,92,33,1.02,ID,1723675160
313,kone,-21.0595,164.8658,25.49000000000001,53,45,4.39,NC,1723675160
314,daru,-9.0763,143.2092,25.650000000000034,83,98,4.95,PG,1723675160
315,alibag,18.6411,72.8792,28.04000000000002,85,100,2.66,IN,1723675160
316,acapulco de juarez,16.8634,-99.8901,29.900000000000034,66,75,5.14,MX,1723674983
317,chharra,27.9333,78.4167,27.700000000000045,87,99,2.76,IN,1723675160
318,princeton,25.5384,-80.4089,33.34000000000003,71,0,3.09,US,1723675161
319,novi pazar,43.1367,20.5122,23.210000000000036,50,70,1.52,RS,1723675161
320,tabalah,19.95,42.4,27.58000000000004,27,95,4.01,SA,1723675161
321,cangucu,-31.395,-52.6756,9.560000000000002,86,0,1.52,BR,1723675161
322,tlaltenango de sanchez roman,21.7833,-103.3167,24.350000000000023,61,96,0.66,MX,1723675161
323,madinat sittah uktubar,29.8167,31.05,27.78000000000003,63,0,4.79,EG,1723675162
324,porto novo,6.4965,2.6036,24.900000000000034,89,8,2.33,BJ,1723675162
325,puerto aysen,-45.4,-72.7,4.270000000000039,99,88,1.5,CL,1723675162
326,kruisfontein,-34.0033,24.7314,11.050000000000011,67,92,7.36,ZA,1723675162
327,colares,38.7992,-9.4469,19.879999999999995,79,59,11.38,PT,1723675162
328,manta,-0.95,-80.7333,27.879999999999995,69,20,5.66,EC,1723675104
329,hankasalmi,62.3833,26.4333,13.939999999999998,69,100,0.22,FI,1723675163
330,susuman,62.7833,148.1667,4.860000000000014,59,72,1.37,RU,1723675163
331,kristiansund,63.1115,7.732,14.03000000000003,96,75,0.0,NO,1723675163
332,dryden,49.7833,-92.7503,28.160000000000025,42,20,6.69,CA,1723675163
333,kodinsk,58.6881,99.1844,16.400000000000034,75,100,1.03,RU,1723675163
334,nyurba,63.2842,118.3319,9.720000000000027,55,46,2.3,RU,1723675163
335,kiamba,5.9894,124.6242,26.860000000000014,78,26,2.21,PH,1723675164
336,pontianak,-0.0333,109.3333,25.99000000000001,100,75,1.03,ID,1723675164
337,akonolinga,3.7667,12.25,19.230000000000018,99,90,1.26,CM,1723675164
338,villa gesell,-37.2639,-56.973,10.240000000000009,79,100,4.34,AR,1723675164
339,el matama,16.7095,33.3565,30.660000000000025,56,38,5.82,SD,1723675164
340,midvagur,62.0511,-7.1939,11.460000000000036,100,100,11.32,FO,1723675164
341,gadzhiyevo,69.2551,33.3362,13.260000000000048,65,87,4.41,RU,1723675165
342,nar'yan-mar,67.6713,53.087,9.29000000000002,96,100,8.02,RU,1723675165
343,luanda,-8.8368,13.2343,20.0,88,18,0.0,AO,1723675165
344,bom jesus,-9.0744,-44.3586,28.28000000000003,29,8,2.96,BR,1723675165
345,guna,24.65,77.3167,24.75,93,100,3.36,IN,1723675165
346,turpan,42.9333,89.1667,31.49000000000001,19,30,3.39,CN,1723675165
347,scituate,42.1959,-70.7259,25.420000000000016,73,0,0.0,US,1723675166
348,madalena,41.2162,-8.3345,20.170000000000016,77,19,1.18,PT,1723675166
349,praia da vitoria,38.7333,-27.0667,25.140000000000043,83,20,2.01,PT,1723675166
350,san sebastian de la gomera,28.0916,-17.1133,24.200000000000045,73,0,2.06,ES,1723675166
351,kavaratti,10.5669,72.642,26.05000000000001,88,100,6.63,IN,1723675166
352,okhotsk,59.3833,143.3,10.910000000000025,80,100,5.15,RU,1723675166
353,ocean shores,46.9737,-124.1563,19.600000000000023,79,0,6.17,US,1723675167
354,godhra,22.75,73.6333,25.390000000000043,94,100,3.62,IN,1723675167
355,veselyy,47.0934,40.7422,18.810000000000002,45,59,2.33,RU,1723675167
356,kingston,17.997,-76.7936,32.31,70,20,2.57,JM,1723675167
357,enoch,37.7733,-113.0244,31.189999999999998,21,0,7.2,US,1723675168
358,pechora,65.1472,57.2244,11.990000000000009,97,100,7.15,RU,1723675168
359,roma,43.2128,-75.4557,24.400000000000034,71,61,0.45,US,1723675168
360,toguchin,55.2353,84.3858,15.670000000000016,82,4,1.47,RU,1723675168
361,pokhara,28.2333,83.9833,21.560000000000002,79,100,2.01,NP,1723675168
362,toijala,61.1678,23.8382,12.189999999999998,90,5,1.7,FI,1723675168
363,salym,60.0625,71.4789,13.760000000000048,96,96,3.43,RU,1723675169
364,huarmey,-10.0681,-78.1522,17.970000000000027,78,10,4.47,PE,1723675169
365,qusmuryn,52.4503,64.6311,14.480000000000018,77,12,4.62,KZ,1723675169
366,zaragoza,41.6561,-0.8773,19.450000000000045,57,0,9.77,ES,1723675169
367,lapovo,44.1842,21.0973,24.57000000000005,44,40,0.49,RS,1723675169
368,sittwe,20.15,92.9,26.560000000000002,88,99,2.67,MM,1723675169
369,owen sound,44.5672,-80.9435,27.160000000000025,54,2,1.79,CA,1723675170
370,berdigestyakh,62.0989,126.6992,10.78000000000003,54,99,1.93,RU,1723675170
371,qaqortoq,60.7167,-46.0333,5.770000000000039,84,19,1.69,GL,1723675170
372,nam som,17.7704,102.1895,24.560000000000002,91,96,0.45,TH,1723675170
373,tyazhinskiy,56.116,88.524,15.25,91,0,2.32,RU,1723675170
374,impfondo,1.6381,18.0667,22.05000000000001,95,100,1.6,CG,1723675171
375,tromso,69.6496,18.957,19.010000000000048,59,75,2.06,NO,1723675171
376,vegreville,53.5001,-112.0518,22.30000000000001,56,22,6.17,CA,1723674995
377,pierre,44.3683,-100.351,31.510000000000048,55,20,4.12,US,1723675171
378,santa ana de yacuma,-13.75,-65.4333,30.970000000000027,51,0,2.57,BO,1723675171
379,proletarsk,46.7031,41.7192,18.900000000000034,44,13,1.02,RU,1723675171
380,san salvador,13.6894,-89.1872,28.920000000000016,75,20,2.57,SV,1723674609
381,queenstown,-31.8976,26.8753,4.430000000000007,54,1,1.55,ZA,1723675172
382,larisa,39.6372,22.4203,25.180000000000007,43,0,0.0,GR,1723675172
383,khovd,48.0056,91.6419,18.010000000000048,43,0,2.13,MN,1723675172
384,bereznik,62.8551,42.7072,7.57000000000005,70,9,3.31,RU,1723675172
385,leshan,29.5623,103.7639,23.230000000000018,92,100,0.91,CN,1723675172
386,filadelfia,39.9523,-75.1638,29.560000000000002,42,75,3.6,US,1723675172
387,kununurra,-15.7667,128.7333,13.990000000000009,88,8,1.03,AU,1723675173
388,grafton,42.207,-71.6856,25.810000000000002,65,83,3.01,US,1723675173
389,touros,-5.1989,-35.4608,24.480000000000018,75,0,7.57,BR,1723675173
390,atar,20.5169,-13.0499,34.89000000000004,32,5,4.95,MR,1723675173
391,barra de santo antonio,-9.4047,-35.5072,24.600000000000023,75,45,5.26,BR,1723675174
392,rabaul,-4.1967,152.1721,27.700000000000045,72,10,1.14,PG,1723675174
393,zalingei,12.9096,23.4741,20.650000000000034,92,93,2.46,SD,1723675174
394,coruripe,-10.1256,-36.1756,22.840000000000032,81,5,4.48,BR,1723675174
395,siwa oasis,29.2041,25.5195,31.55000000000001,28,9,6.43,EG,1723675174
396,simanggang,1.2472,111.4528,24.99000000000001,94,80,0.0,MY,1723675174
397,decatur,39.8403,-88.9548,27.360000000000014,78,100,1.59,US,1723675175
398,ulan bator,47.9077,106.8832,12.07000000000005,87,40,1.0,MN,1723675022
399,gurinhem,-7.1239,-35.4244,20.33000000000004,84,6,2.7,BR,1723675175
400,rajula,21.05,71.4333,25.720000000000027,87,98,2.92,IN,1723675175
401,hell-ville,-13.4,48.2667,25.230000000000018,69,92,2.25,MG,1723675175
402,yigo village,13.5361,144.8886,26.620000000000005,86,0,2.57,GU,1723675175
403,cadale,2.7603,46.3222,25.060000000000002,84,63,7.85,SO,1723675176
404,antalaha,-14.9003,50.2788,20.220000000000027,79,64,3.48,MG,1723675176
405,lamu,-2.2717,40.902,24.470000000000027,81,5,7.1,KE,1723675176
406,stuttgart,48.7823,9.177,21.140000000000043,84,0,1.54,DE,1723675176
407,san juan,-31.5375,-68.5364,18.220000000000027,18,31,4.34,AR,1723674886
408,dolbeau-mistassini,48.8763,-72.212,25.260000000000048,76,94,2.97,CA,1723675176
409,weno,7.4515,151.8468,28.970000000000027,89,100,1.54,FM,1723675176
410,changji,44.0167,87.3167,27.439999999999998,39,62,1.0,CN,1723675177
411,aldinga beach,-35.2793,138.4604,19.590000000000032,65,99,3.79,AU,1723675177
412,zhezqazghan,47.7833,67.7667,21.27000000000004,27,8,3.14,KZ,1723675177
413,cova figueira,14.8905,-24.2934,20.340000000000032,85,22,1.87,CV,1723675177
414,buta,2.7858,24.73,20.560000000000002,99,100,0.87,CD,1723675177
415,glace bay,46.1969,-59.957,16.55000000000001,95,75,1.34,CA,1723675080
416,swakopmund,-22.6833,14.5333,12.210000000000036,88,2,0.45,NA,1723675178
417,port jervis,41.3751,-74.6927,25.879999999999995,74,75,2.6,US,1723675178
418,lianzhou,24.7811,112.3825,24.660000000000025,98,100,0.44,CN,1723675178
419,arraias,-12.9288,-46.9437,26.05000000000001,45,62,1.77,BR,1723675178
420,fada,7.25,4.0667,25.370000000000005,83,40,3.09,NG,1723675178
421,chateau-thierry,49.05,3.4,20.760000000000048,84,36,1.5,FR,1723675179
422,fukuecho,32.6881,128.8419,28.410000000000025,73,99,0.47,JP,1723675179
423,shingu,33.7333,135.9833,29.710000000000036,65,0,1.88,JP,1723675179
424,shwebo,22.5667,95.7,24.879999999999995,92,93,3.91,MM,1723675179
425,dessau,51.8386,12.2456,22.470000000000027,87,100,2.81,DE,1723675179
426,carnarvon,-24.8667,113.6333,18.78000000000003,73,84,4.69,AU,1723675179
427,ketchikan,55.3422,-131.6461,19.629999999999995,52,0,6.17,US,1723675180
428,rabo de peixe,37.8,-25.5833,23.730000000000018,83,20,2.06,PT,1723675180
429,la'ie,21.6477,-157.9253,30.980000000000018,66,3,5.56,US,1723675180
430,new norfolk,-42.7826,147.0587,9.400000000000034,83,100,0.93,AU,1723675180
431,whangarei,-35.7317,174.3239,13.330000000000041,66,100,1.31,NZ,1723675159
432,barroquinha,-3.0189,-41.1361,25.230000000000018,62,0,4.49,BR,1723675180
433,burang,30.25,81.1667,8.860000000000014,88,14,1.02,CN,1723675180
434,pacaembu,-21.5622,-51.2606,19.83000000000004,29,84,3.4,BR,1723675181
435,constantia,44.1833,28.65,22.610000000000014,59,1,4.71,RO,1723675181
436,pelabuhanratu,-6.9875,106.5514,22.610000000000014,90,84,2.07,ID,1723675181
437,lake havasu city,34.4839,-114.3224,42.34000000000003,14,0,6.17,US,1723675102
438,manokwari,-0.8667,134.0833,26.52000000000004,76,15,0.89,ID,1723675182
439,mpwapwa,-6.35,36.4833,17.32000000000005,76,0,2.17,TZ,1723675182
440,tsetserleg,47.475,101.4542,9.230000000000018,88,98,1.35,MN,1723675182
441,yarrawonga,-36.0167,146.0,12.07000000000005,86,58,2.01,AU,1723675182
442,mishelevka,52.8575,103.1719,13.410000000000025,93,100,2.04,RU,1723675182
443,rajapolah,-7.221,108.1896,19.230000000000018,94,100,1.03,ID,1723675182
444,rio grande,-32.035,-52.0986,12.189999999999998,79,1,3.62,BR,1723675183
445,ardakan,32.31,54.0175,33.26000000000005,22,44,5.52,IR,1723675183
446,tosontsengel,48.7567,98.2839,9.879999999999995,80,86,1.36,MN,1723675183
447,tandil,-37.3217,-59.1332,12.050000000000011,72,100,2.64,AR,1723675183
448,pecanha,-18.5486,-42.5569,15.300000000000011,83,7,1.46,BR,1723675183
449,ishigaki,24.3448,124.1572,28.07000000000005,100,88,1.54,JP,1723675183
450,wasagu,11.3764,5.7954,21.30000000000001,98,63,1.91,NG,1723675184
451,nova vicosa,-17.8919,-39.3719,21.590000000000032,76,57,3.26,BR,1723675184
452,williams lake,52.1415,-122.1445,30.03000000000003,36,75,0.89,CA,1723675184
453,vorgashor,67.5833,63.95,13.379999999999995,76,91,7.6,RU,1723675184
454,hasaki,35.7333,140.8333,29.220000000000027,81,5,1.8,JP,1723675184
455,juankoski,63.0667,28.35,15.980000000000018,63,95,0.26,FI,1723675184
456,ipora,-16.4419,-51.1178,25.49000000000001,25,2,0.89,BR,1723675185
457,mendi,-6.1761,143.6513,16.160000000000025,89,73,0.84,PG,1723675185
458,langepas,61.2544,75.2124,12.840000000000032,93,87,4.52,RU,1723675185
459,castillos,-34.1667,-53.8333,8.960000000000036,75,91,1.58,UY,1723675185
460,revda,56.801,59.9303,10.879999999999995,92,100,4.43,RU,1723675185
461,ciudad bolivar,8.1222,-63.5497,28.890000000000043,61,100,4.48,VE,1723675185
462,djibouti,11.5,42.5,28.110000000000014,56,3,1.52,DJ,1723675186
463,nuuk,64.1835,-51.7216,7.340000000000032,87,75,3.6,GL,1723675186
464,harper,4.375,-7.7169,24.180000000000007,79,98,5.26,LR,1723675186
465,arkhangel'sk,64.5401,40.5433,6.060000000000002,100,0,3.0,RU,1723675186
466,mount isa,-20.7333,139.5,14.870000000000005,58,0,0.0,AU,1723675186
467,playas,-2.6333,-80.3833,22.02000000000004,84,81,4.91,EC,1723675186
468,baracoa,20.3467,-74.4958,27.82000000000005,85,26,4.26,CU,1723675187
469,happy valley-goose bay,53.3168,-60.3315,26.170000000000016,41,75,5.66,CA,1723675187
470,santa terezinha,-29.9002,-50.0904,13.010000000000048,73,0,3.18,BR,1723675187
471,korla,41.7597,86.1469,25.760000000000048,34,88,3.09,CN,1723675187
472,calvinia,-31.4707,19.776,7.300000000000011,56,8,2.5,ZA,1723675187
473,al bayda',32.7627,21.7551,21.260000000000048,88,0,0.52,LY,1723675187
474,bakanas,44.8081,76.2772,28.08000000000004,26,31,2.22,KZ,1723675188
475,keetmanshoop,-26.5833,18.1333,13.490000000000009,26,1,3.72,NA,1723675188
476,xiantao,30.3833,113.4,25.25,91,2,3.43,CN,1723675188
477,santa elena de uairen,4.6167,-61.1333,21.220000000000027,79,54,1.33,VE,1723675188
478,durango,24.8333,-104.8333,26.55000000000001,34,81,7.05,MX,1723675116
479,mingora,34.7758,72.3625,25.470000000000027,86,69,1.09,PK,1723675189
480,seybaplaya,19.65,-90.6667,27.700000000000045,83,100,5.36,MX,1723675189
481,katsuura,35.1333,140.3,28.150000000000034,83,5,2.42,JP,1723675189
482,plastun,44.7561,136.2939,21.27000000000004,82,5,0.74,RU,1723675189
483,turuntayevo,52.2,107.6167,17.05000000000001,98,100,1.7,RU,1723675189
484,benguela,-12.5763,13.4055,20.400000000000034,86,65,1.88,AO,1723675190
485,bardai,11.65,7.2333,20.75,95,30,3.41,NG,1723675190
486,yurty,56.0498,97.6348,12.57000000000005,87,0,2.17,RU,1723675190
487,semnan,35.5729,53.3971,28.890000000000043,37,0,3.5,IR,1723675190
488,wagar,16.1525,36.2032,28.33000000000004,69,100,6.85,SD,1723675190
489,harda khas,22.3333,77.1,24.810000000000002,93,100,2.34,IN,1723675190
490,benghazi,32.1167,20.0667,27.79000000000002,70,0,4.7,LY,1723675191
491,namtsy,62.7161,129.6658,11.090000000000032,43,99,3.01,RU,1723675191
492,alotau,-10.3069,150.4462,27.650000000000034,79,75,1.81,PG,1723675191
493,homer,59.6425,-151.5483,16.689999999999998,78,3,1.95,US,1723675191
494,bazarak,35.3129,69.5152,16.57000000000005,49,0,5.22,AF,1723675191
495,katabu,-4.9333,122.5167,23.510000000000048,81,16,1.92,ID,1723675191
496,chakvi,41.7187,41.7335,19.99000000000001,77,0,6.69,GE,1723675192
497,ad darb,17.7229,42.2526,30.80000000000001,71,80,2.87,SA,1723675192
498,vila do maio,15.1333,-23.2167,26.439999999999998,82,32,8.07,CV,1723675192
499,cockburn town,21.4612,-71.1419,27.840000000000032,79,61,9.33,TC,1723675192
500,temamatla,19.2,-98.8833,23.74000000000001,79,100,1.96,MX,1723675192
501,panaba,21.2833,-88.2667,31.150000000000034,62,28,6.72,MX,1723675192
502,flin flon,54.7682,-101.865,23.910000000000025,69,75,3.09,CA,1723675193
503,nyandoma,61.669,40.1991,5.75,82,40,2.84,RU,1723675193
504,ust-nera,64.5667,143.2,7.5,55,10,1.96,RU,1723675193
505,mariehamn,60.0973,19.9348,17.680000000000007,88,0,4.12,AX,1723675193
506,zhangye,38.9342,100.4517,18.870000000000005,50,49,2.61,CN,1723674905
507,semirara,12.0697,121.3986,28.220000000000027,77,100,3.15,PH,1723675193
508,casper,42.8666,-106.3131,20.450000000000045,58,53,1.79,US,1723675193
509,seminole,28.7086,-81.2081,31.200000000000045,80,100,2.06,US,1723675194
510,prado,-17.3411,-39.2208,22.010000000000048,78,88,3.79,BR,1723675194
511,caraballeda,10.6112,-66.8522,30.04000000000002,62,95,1.54,VE,1723675194
512,sombrio,-29.1139,-49.6167,14.410000000000025,77,0,0.83,BR,1723675194
513,shimoda,34.6667,138.95,26.720000000000027,80,1,3.8,JP,1723675195
514,laguna salada,19.6483,-71.0945,29.340000000000032,78,100,1.34,DO,1723675195
515,nevesinje,43.2586,18.1133,17.480000000000018,33,0,2.22,BA,1723675195
516,portland,45.5234,-122.6762,26.900000000000034,53,75,1.79,US,1723674796
517,jijiga,9.35,42.8,18.340000000000032,80,37,5.96,ET,1723675195
518,chos malal,-37.3781,-70.2709,11.920000000000016,57,100,1.42,AR,1723675195
519,santarem,-2.4431,-54.7083,28.07000000000005,78,0,2.06,BR,1723675195
520,gualaceo,-2.9,-78.7833,19.810000000000002,91,97,2.19,EC,1723675196
521,baise city,23.8997,106.6133,23.600000000000023,95,30,1.27,CN,1723675196
522,malvik,63.4333,10.6833,14.770000000000039,94,75,1.03,NO,1723675196
523,alesund,62.4723,6.1549,14.629999999999995,89,75,0.0,NO,1723675196
524,katsuren-haebaru,26.3369,127.8719,28.430000000000007,88,75,1.54,JP,1723675196
525,northam,51.0333,-4.2167,15.220000000000027,92,58,3.66,GB,1723675197
526,oranjemund,-28.55,16.4333,12.460000000000036,76,2,3.73,NA,1723675197
527,bairnsdale,-37.8333,147.6167,14.79000000000002,57,13,1.3,AU,1723675197
528,afaahiti,-17.75,-149.2833,27.930000000000007,81,20,2.94,PF,1723675197
529,simenqian,27.4872,110.8861,24.210000000000036,91,91,1.57,CN,1723675197
530,paracuru,-3.41,-39.0306,25.590000000000032,76,8,7.07,BR,1723675197
531,selfoss,63.9331,-20.9971,10.020000000000039,97,100,1.99,IS,1723675198
532,hede,33.7681,120.2517,26.720000000000027,88,13,2.44,CN,1723675198
533,asbestos,45.7668,-71.9324,24.980000000000018,84,82,1.85,CA,1723675198
534,dapa,9.7594,126.0531,27.83000000000004,78,100,1.59,PH,1723675198
535,watsa,3.0372,29.5355,18.370000000000005,99,100,1.76,CD,1723675198
536,kargasok,59.0556,80.8572,14.870000000000005,95,92,3.35,RU,1723675198
537,kavieng,-2.5744,150.7967,28.30000000000001,75,51,4.02,PG,1723675199
538,claveria,18.6074,121.0832,27.660000000000025,81,100,3.01,PH,1723675199
539,aibak,36.2647,68.0155,27.08000000000004,30,0,2.12,AF,1723675199
540,kenai,60.5544,-151.2583,18.340000000000032,74,0,4.63,US,1723675199
541,hola,51.5377,23.1902,15.100000000000023,72,0,2.74,PL,1723675199
542,keflavik,64.0049,-22.5624,8.950000000000045,93,75,7.2,IS,1723675200
543,zbarazh,49.6636,25.7762,14.75,60,0,3.8,UA,1723675200
544,tarauaca,-8.1614,-70.7656,28.010000000000048,38,9,0.52,BR,1723675200
545,yung shue wan,22.2333,114.1167,28.710000000000036,88,99,2.98,HK,1723675200
546,mlangali,-9.7833,34.5167,13.020000000000039,63,0,2.09,TZ,1723675200
547,acarau,-2.8856,-40.12,25.460000000000036,77,0,9.04,BR,1723674961
548,zanjan,36.6736,48.4787,19.400000000000034,70,0,3.61,IR,1723675201
549,cruzeiro do sul,-29.5128,-51.9853,15.28000000000003,88,0,0.49,BR,1723675201
550,jamaame,0.0697,42.745,24.340000000000032,83,11,5.95,SO,1723675201
551,kralendijk,12.15,-68.2667,30.99000000000001,62,0,6.69,BQ,1723675201
552,campo gallo,-26.5833,-62.85,20.100000000000023,28,0,2.6,AR,1723675201
553,kabalo,-6.05,26.9167,28.25,45,52,1.69,CD,1723675201
554,kayes,14.0,-11.0,21.670000000000016,97,71,3.36,ML,1723675202
555,lishui,28.4604,119.9103,24.910000000000025,94,85,0.2,CN,1723675202
556,cervia,44.2657,12.3427,27.78000000000003,68,0,4.12,IT,1723675202
557,valparaiso,-33.0393,-71.6273,16.189999999999998,81,100,0.0,CL,1723675202
558,sabang,5.8933,95.3214,28.610000000000014,75,57,2.32,ID,1723675202
559,zhangatas,43.5667,69.75,24.060000000000002,17,1,3.1,KZ,1723675203
560,el reno,35.5323,-97.955,37.80000000000001,36,0,6.69,US,1723675203
561,kermanshah,34.3142,47.065,25.5,22,0,4.12,IR,1723675203
562,takhatpur,22.15,81.8667,26.460000000000036,83,100,1.95,IN,1723675203
563,hiratacho,35.4333,132.8167,28.010000000000048,89,75,5.66,JP,1723675203
564,polyarnyy,69.1989,33.4478,13.25,66,89,4.69,RU,1723675204
565,tarakan,3.3,117.6333,24.720000000000027,100,20,1.54,ID,1723675204
566,gizo,-8.103,156.8419,27.960000000000036,78,77,2.64,SB,1723675204
567,slantsy,59.1182,28.0914,13.200000000000045,97,2,1.52,RU,1723674908
568,mogadishu,2.0371,45.3438,24.99000000000001,84,29,8.15,SO,1723675205
569,labuan,5.2767,115.2417,26.200000000000045,100,40,1.03,MY,1723675205
570,lensk,60.7253,114.9278,13.28000000000003,85,100,1.9,RU,1723675205
571,kalmunai,7.4167,81.8167,26.260000000000048,84,78,3.88,LK,1723675205
572,sedhiou,12.7081,-15.5569,24.460000000000036,95,100,1.36,SN,1723675205
